[
    {
        "id": "pas3",
        "name": "Mall of Asia",
        "address": "Pasay City",
        "coordinates": {
            "lat": 14.546351463713943, 
            "lng": 120.98728179987157
        }
    },
    {        "id":"pas2",

        "name": "Quezon City Circle",
        "address": "Quezon City",
        "coordinates": {
            "lat": 14.65240541768059, 
            "lng": 121.04935807819123 
        }
    },
    {
        "id": "pas1",

        "name": "Levina PLace",
        "address": "Pasig City",
        "coordinates": {
            "lat": 14.58202078289433, 
            "lng": 121.09198182771503 
        }
    }
    ,
    {        "id":"pas2",

        "name": "Quezon City Circle",
        "address": "Quezon City",
        "coordinates": {
            "lat": 14.65240541768059, 
            "lng": 121.04935807819123 
        }
    },
    {
        "id": "pas1",

        "name": "Levina PLace",
        "address": "Pasig City",
        "coordinates": {
            "lat": 14.58202078289433, 
            "lng": 121.09198182771503 
        }
    },
    {        "id":"pas2",

        "name": "Quezon City Circle",
        "address": "Quezon City",
        "coordinates": {
            "lat": 14.65240541768059, 
            "lng": 121.04935807819123 
        }
    },
    {
        "id": "pas1",

        "name": "Levina PLace",
        "address": "Pasig City",
        "coordinates": {
            "lat": 14.58202078289433, 
            "lng": 121.09198182771503 
        }
    },
    {        "id":"pas2",

        "name": "Quezon City Circle",
        "address": "Quezon City",
        "coordinates": {
            "lat": 14.65240541768059, 
            "lng": 121.04935807819123 
        }
    },
    {
        "id": "pas1",

        "name": "Levina PLace",
        "address": "Pasig City",
        "coordinates": {
            "lat": 14.58202078289433, 
            "lng": 121.09198182771503 
        }
    },
    {        "id":"pas2",

        "name": "Quezon City Circle",
        "address": "Quezon City",
        "coordinates": {
            "lat": 14.65240541768059, 
            "lng": 121.04935807819123 
        }
    },
    {
        "id": "pas1",

        "name": "Levina PLace",
        "address": "Pasig City",
        "coordinates": {
            "lat": 14.58202078289433, 
            "lng": 121.09198182771503 
        }
    },
    {        "id":"pas2",

        "name": "Quezon City Circle",
        "address": "Quezon City",
        "coordinates": {
            "lat": 14.65240541768059, 
            "lng": 121.04935807819123 
        }
    },
    {
        "id": "pas1",

        "name": "Levina PLace",
        "address": "Pasig City",
        "coordinates": {
            "lat": 14.58202078289433, 
            "lng": 121.09198182771503 
        }
    },
    {        "id":"pas2",

        "name": "Quezon City Circle",
        "address": "Quezon City",
        "coordinates": {
            "lat": 14.65240541768059, 
            "lng": 121.04935807819123 
        }
    },
    {
        "id": "pas1",

        "name": "Levina PLace",
        "address": "Pasig City",
        "coordinates": {
            "lat": 14.58202078289433, 
            "lng": 121.09198182771503 
        }
    },
    {        "id":"pas2",

        "name": "Quezon City Circle",
        "address": "Quezon City",
        "coordinates": {
            "lat": 14.65240541768059, 
            "lng": 121.04935807819123 
        }
    },
    {
        "id": "pas1",

        "name": "Levina PLace",
        "address": "Pasig City",
        "coordinates": {
            "lat": 14.58202078289433, 
            "lng": 121.09198182771503 
        }
    },
    {        "id":"pas2",

        "name": "Quezon City Circle",
        "address": "Quezon City",
        "coordinates": {
            "lat": 14.65240541768059, 
            "lng": 121.04935807819123 
        }
    },
    {
        "id": "pas1",

        "name": "Levina PLace",
        "address": "Pasig City",
        "coordinates": {
            "lat": 14.58202078289433, 
            "lng": 121.09198182771503 
        }
    },
    {        "id":"pas2",

        "name": "Quezon City Circle",
        "address": "Quezon City",
        "coordinates": {
            "lat": 14.65240541768059, 
            "lng": 121.04935807819123 
        }
    },
    {
        "id": "pas1",

        "name": "Levina PLace",
        "address": "Pasig City",
        "coordinates": {
            "lat": 14.58202078289433, 
            "lng": 121.09198182771503 
        }
    },
    {        "id":"pas2",

        "name": "Quezon City Circle",
        "address": "Quezon City",
        "coordinates": {
            "lat": 14.65240541768059, 
            "lng": 121.04935807819123 
        }
    },
    {
        "id": "pas1",

        "name": "Levina PLace",
        "address": "Pasig City",
        "coordinates": {
            "lat": 14.58202078289433, 
            "lng": 121.09198182771503 
        }
    }

]
